{
	"type": "FeatureCollection",
	"features": [{
		"type": "Feature",
		"properties": {
			"id": "manorhouse",
			"name": "Manor House, De La Warr Road",
			"desc": "The first manor on this land was built just after the Norman Conquest, first known as Bishops' Palace. Rebuilt in 1250 after storm damage, it remained under church ownership until 1590. Renamed Court Lodge, the estate passed through several high-profile owners until its demolition in 1967.",
			"copyright": "Leonard James Bartley",
			"date": {
				"now": "2020",
				"then": "c1960"
			}
		},
		"geometry": {
			"type": "Point",
			"coordinates": [0.47890, 50.84531]
		}
	}, {
		"type": "Feature",
		"properties": {
			"id": "clockhouse",
			"name": "Clock House, 21 Endwell Road",
			"desc": "Built as two dwellings in 1886 by Thomas Todd. The ground floor was later converted to two shops, a Tobacconist and a Wine & Spirit Merchant, after Bexhill Central Railway Station opened in 1902.",
			"copyright": "Bexhill Museum",
			"date": {
				"now": "2020",
				"then": "1888"
			}
		},
		"geometry": {
			"type": "Point",
			"coordinates": [0.47739, 50.84097]
		}
	}, {
		"type": "Feature",
		"properties": {
			"id": "youthcentre",
			"name": "Bexhill Youth Centre, Station Road",
			"desc": "Opened by the 7th Earl De La Warr in 1888 as the Jubilee Memorial Institute, to commemorate Queen Victoria’s Golden Jubilee. It contained a reading room, smoking room, committee room, card room, bar parlour and, later, a billiards room. Building alterations were made in 1965. Today used as a youth and community centre.",
			"copyright": "Francis Frith",
			"date": {
				"now": "2020",
				"then": "1891"
			}
		},
		"geometry": {
			"type": "Point",
			"coordinates": [0.47446, 50.84106]
		}
	}, {
		"type": "Feature",
		"properties": {
			"id": "stfrancis",
			"name": "The Lodge, St Francis Chase",
			"desc": "Built in 1905 this was the lodge and stable house to Deutches Paedagogium, an independent school for German boys. After the First World War it became Garth Place Preparatory School until 1938. Bexhill Council took it over in 1946 as St Francis girl’s school which closed in 1972.",
			"copyright": "Bexhill Museum",
			"date": {
				"now": "2020",
				"then": "c1920"
			}
		},
		"geometry": {
			"type": "Point",
			"coordinates": [0.45888, 50.84732]
		}
	}, {
		"type": "Feature",
		"properties": {
			"id": "kursaal",
			"name": "The Kursaal, East Parade",
			"desc": "Built in 1896 this was Bexhill's first premier entertainment venue. Demolished after the De La Warr Pavilion became established in 1936.",
			"copyright": "Bexhill Museum",
			"date": {
				"now": "2020",
				"then": "1914"
			}
		},
		"geometry": {
			"type": "Point",
			"coordinates": [0.47681, 50.83789]
		}
	}, {
		"type": "Feature",
		"properties": {
			"id": "crossways",
			"name": "The Crossways, Little Common",
			"desc": "Little Common originated from 1588 when the Wheatsheaf Inn was built as a staging post between Brighton and Hastings. The village green It was made into a roundabout in the late 1930's.",
			"copyright": "Bexhill Museum",
			"date": {
				"now": "2020",
				"then": "1929"
			}
		},
		"geometry": {
			"type": "Point",
			"coordinates": [0.43401, 50.84533]
		}
	}, {
		"type": "Feature",
		"properties": {
			"id": "metropole",
			"name": "Metropole Hotel, West Parade",
			"desc": "Architect Joseph Wall, opened in May 1900. 160 bedrooms, smoking-room, billiard-room, tennis courts and electric lifts. Damaged during WWII and demolished 1955.",
			"copyright": "Bexhill Museum",
			"date": {
				"now": "2020",
				"then": "c1910"
			}
		},
		"geometry": {
			"type": "Point",
			"coordinates": [0.46933, 50.83689]
		}
	}, {
		"type": "Feature",
		"properties": {
			"id": "sydenham",
			"name": "De La Warr Estate Office, Sea Road",
			"desc": "The office where prospective developers could buy and let land from 8th De La Warr's Architect and Surveyor, George Herbert Gray. One of the buildings was demolished in the 1970's, replaced with Sydenham Court apartments.",
			"copyright": "Bexhill Museum",
			"date": {
				"now": "2019",
				"then": "c1898"
			}
		},
		"geometry": {
			"type": "Point",
			"coordinates": [0.47694, 50.83955]
		}
	}, {
		"type": "Feature",
		"properties": {
			"id": "marinacourt",
			"name": "Marina Court, Marina Court Avenue",
			"desc": "Designed by Paul Hoffman and built by Mr Gold, it was used for residential apartments with letting for shops between the years of 1901-1970. One of the first places in Bexhill to have hydraulic lifts and electric lighting. Today demolished and used as an extension to the De La Warr Pavilion car park.",
			"copyright": "Bexhill Museum",
			"date": {
				"now": "2019",
				"then": "1965"
			}
		},
		"geometry": {
			"type": "Point",
			"coordinates": [0.47469, 50.83789]
		}
	}, {
		"type": "Feature",
		"properties": {
			"id": "bexhillstation",
			"name": "Bexhill Railway Station, Sea Road",
			"desc": "Built in 1902 by Charles Morgan, the long platforms are from when the main station was moved from Devonshire Square. Today a Grade II listed building.",
			"date": {
				"now": "2019",
				"then": "c1902"
			}
		},
		"geometry": {
			"type": "Point",
			"coordinates": [0.47727, 50.84136]
		}
	}, {
		"type": "Feature",
		"properties": {
			"id": "eastparade",
			"name": "East Parade",
			"desc": "This eastern promenade was built in 1883, and became 8th Earl De La Warr's private estate from 1895-1913. It included the Kursaal entertainment venue, various hotels and kiosks, a golf course and a cycling boulevard.",
			"date": {
				"now": "2019",
				"then": "1896"
			}
		},
		"geometry": {
			"type": "Point",
			"coordinates": [0.47833, 50.83776]
		}
	}, {
		"type": "Feature",
		"properties": {
			"id": "metropoletram",
			"name": "Bexhill to Hastings Tram, Marina",
			"desc": "The tram ran from West Marina in St. Leonards to Marina roundabout, later extended to Cooden Beach from 1906-1928.",
			"copyright": "Bexhill Museum",
			"date": {
				"now": "2019",
				"then": "1906"
			}
		},
		"geometry": {
			"type": "Point",
			"coordinates": [0.47072, 50.83793]
		}
	}, {
		"type": "Feature",
		"properties": {
			"id": "beehive",
			"name": "The Little Beehive, Old Town",
			"desc": "A tobacconist and confectionery shop between 1903-1974 on High Street. Today a Grade II Listed residential dwelling with the same name.",
			"date": {
				"now": "2019",
				"then": "1912"
			}
		},
		"geometry": {
			"type": "Point",
			"coordinates": [0.47730, 50.84540]
		}
	}, {
		"type": "Feature",
		"properties": {
			"id": "hoadsmill",
			"name": "Hoad’s Windmill, Gunters Lane",
			"desc": "Corn mill in use from 1735-1928. Replaced with an electric motor in 1928, and it finally collapsed in 1965 during a storm. Today a Grade II Listed ruin.",
			"date": {
				"now": "2019",
				"then": "c1930"
			}
		},
		"geometry": {
			"type": "Point",
			"coordinates": [0.46078, 50.85226]
		}
	}, {
		"type": "Feature",
		"properties": {
			"id": "robmarine",
			"name": "Marine Hotel, Marina",
			"desc": "Later known as Roberts Marine Mansions, located on the corner of Devonshire Road between 1895-1954. Today demolished and replaced with Dalmore Court.",
			"date": {
				"now": "2019",
				"then": "1903"
			}
		},
		"geometry": {
			"type": "Point",
			"coordinates": [0.47368, 50.83776]
		}
	}, {
		"type": "Feature",
		"properties": {
			"id": "memorial",
			"name": "War Memorial, Marina",
			"desc": "Designed by Louis Frederick Roslyn and unveiled by Brigadier General O’Donnell in 1920. The figure is of Victory grasping the sword of sacrifice and a wreath, looking out towards the Western Front.",
			"date": {
				"now": "2019",
				"then": "1939"
			}
		},
		"geometry": {
			"type": "Point",
			"coordinates": [0.47670, 50.83775]
		}
	}, {
		"type": "Feature",
		"properties": {
			"id": "riposo",
			"name": "Riposo Hotel, De La Warr Parade",
			"desc": "This Neo-Gothic hotel sat on the corner of Dorset Road South between 1901-1961. It served 39 rooms, mostly to keen golfers on The Links course to the east. Today demolished and replaced with Cavendish Court.",
			"date": {
				"now": "2019",
				"then": "c1930"
			}
		},
		"geometry": {
			"type": "Point",
			"coordinates": [0.48372, 50.83925]
		}
	}, {
		"type": "Feature",
		"properties": {
			"id": "delawarrgate",
			"name": "De La Warr Gates, De La Warr Parade",
			"desc": "These gates were the entrance to the 8th Earl De La Warr's private estate from 1895-1913.",
			"copyright": "Bexhill Museum",
			"date": {
				"now": "2019",
				"then": "c1896"
			}
		},
		"geometry": {
			"type": "Point",
			"coordinates": [0.47638, 50.83798]
		}
	}, {
		"type": "Feature",
		"properties": {
			"id": "colonnade",
			"name": "The Colonnade, Central Parade",
			"desc": "Designed by Joseph Barker Wall and opened in 1911, this bandstand was an original feature of the now Grade II Listed Colonnade, it was lost in a storm in 1949.",
			"date": {
				"now": "2018",
				"then": "1918"
			}
		},
		"geometry": {
			"type": "Point",
			"coordinates": [0.47156, 50.83699]
		}
	}, {
		"type": "Feature",
		"properties": {
			"id": "westparade",
			"name": "West Parade",
			"desc": "This promenade and adjacent road was laid out in 1886. The Edwardian Bandstand built in 1903 was lost in 1977.",
			"date": {
				"now": "2019",
				"then": "c1950"
			}
		},
		"geometry": {
			"type": "Point",
			"coordinates": [0.46675, 50.83651]
		}
	}, {
		"type": "Feature",
		"properties": {
			"id": "sackvillearch",
			"name": "Sackville Arch, Sackville Road",
			"desc": "Henry Young upgrading the railway bridge from a cattle arch. Young supplied material from his foundry in Pimlico and was also responsible for the building of the East Parade shelter near The Sackville.",
			"date": {
				"now": "2019",
				"then": "1892"
			}
		},
		"geometry": {
			"type": "Point",
			"coordinates": [0.46964, 50.84028]
		}
	}]
}
