{
	"type": "FeatureCollection",
	"features": [{
			"type": "Feature",
			"properties": {
				"id": "51downlands",
				"name": "51 Downlands Close",
				"ward": "Kewhurst",
				"img": {
					"0": "itemScarecrow/img/2020/51downlands(0)"
				}
			},
			"geometry": {
				"type": "Point",
				"coordinates": [0.46350, 50.84423]
			}
		}, {
			"type": "Feature",
			"properties": {
				"id": "29willingdon",
				"name": "29 Willingdon Avenue",
				"ward": "Kewhurst",
				"img": {
					"0": "itemScarecrow/img/2020/29willingdon(0)"
				}
			},
			"geometry": {
				"type": "Point",
				"coordinates": [0.45967, 50.84531]
			}
		}, {
			"type": "Feature",
			"properties": {
				"id": "12effingham",
				"name": "12 Effingham Drive",
				"ward": "Kewhurst",
				"img": {
					"0": "itemScarecrow/img/2020/12effingham(0)"
				}
			},
			"geometry": {
				"type": "Point",
				"coordinates": [0.43828, 50.84043]
			}
		}, {
			"type": "Feature",
			"properties": {
				"id": "93birkdale",
				"name": "93 Birkdale",
				"ward": "Kewhurst",
				"winner": 1,
				"img": {
					"0": "itemScarecrow/img/2020/93birkdale(0)"
				}
			},
			"geometry": {
				"type": "Point",
				"coordinates": [0.43589, 50.84330]
			}
		}, {
			"type": "Feature",
			"properties": {
				"id": "25arthur",
				"name": "25 Arthur Road",
				"ward": "Kewhurst",
				"img": {
					"0": "itemScarecrow/img/2020/25arthur(0)"
				}
			},
			"geometry": {
				"type": "Point",
				"coordinates": [0.46293, 50.84493]
			}
		}, {
			"type": "Feature",
			"properties": {
				"id": "1trinity",
				"name": "1 Trinity Trees, Cranston Close",
				"ward": "Kewhurst",
				"winner": 2,
				"img": {
					"0": "itemScarecrow/img/2020/1trinity(0)"
				}
			},
			"geometry": {
				"type": "Point",
				"coordinates": [0.45565, 50.84427]
			}
		}, {
			"type": "Feature",
			"properties": {
				"id": "7pages",
				"name": "7 Pages Lane",
				"ward": "Collington",
				"img": {
					"0": "itemScarecrow/img/2020/7pages(0)"
				}
			},
			"geometry": {
				"type": "Point",
				"coordinates": [0.44770, 50.84016]
			}
		}, {
			"type": "Feature",
			"properties": {
				"id": "12south",
				"name": "12 South Cliff",
				"ward": "Collington",
				"img": {
					"0": "itemScarecrow/img/2020/12south(0)"
				}
			},
			"geometry": {
				"type": "Point",
				"coordinates": [0.45693,50.83586]
			}
		}, {
			"type": "Feature",
			"properties": {
				"id": "2beaulieu",
				"name": "Sunny Corner, 2 Beaulieu Road",
				"ward": "Collington",
				"winner": 2,
				"img": {
					"0": "itemScarecrow/img/2020/2beaulieu(0)"
				}
			},
			"geometry": {
				"type": "Point",
				"coordinates": [0.43788, 50.83492]
			}
		}, {
			"type": "Feature",
			"properties": {
				"id": "2collington",
				"name": "2 Collington Court, Collington Avenue",
				"ward": "Collington",
				"img": {
					"0": "itemScarecrow/img/2020/2collington(0)"
				}
			},
			"geometry": {
				"type": "Point",
				"coordinates": [0.44768, 50.84073]
			}
		}, {
			"type": "Feature",
			"properties": {
				"id": "6hawkhurst",
				"name": "6 Hawkhurst Way",
				"ward": "Collington",
				"img": {
					"0": "itemScarecrow/img/2020/6hawkhurst(0)"
				}
			},
			"geometry": {
				"type": "Point",
				"coordinates": [0.44420, 50.84009]
			}
		}, {
			"type": "Feature",
			"properties": {
				"id": "9brockley",
				"name": "Park Haven, 9 Brockley Road",
				"ward": "Central",
				"img": {
					"0": "itemScarecrow/img/2020/9brockley(0)"
				}
			},
			"geometry": {
				"type": "Point",
				"coordinates": [0.46264, 50.83823]
			}
		}, {
			"type": "Feature",
			"properties": {
				"id": "25pages",
				"name": "25 Pages Lane",
				"ward": "Collington",
				"img": {
					"0": "itemScarecrow/img/2020/25pages(0)"
				}
			},
			"geometry": {
				"type": "Point",
				"coordinates": [0.44796, 50.83915]
			}
		}, {
			"type": "Feature",
			"properties": {
				"id": "17bcollington",
				"name": "17B Collington Avenue",
				"ward": "Collington",
				"img": {
					"0": "itemScarecrow/img/2020/17bcollington(0)"
				}
			},
			"geometry": {
				"type": "Point",
				"coordinates": [0.46016, 50.84065]
			}
		}, {
			"type": "Feature",
			"properties": {
				"id": "33pages",
				"name": "33 Pages Lane",
				"ward": "Collington",
				"img": {
					"0": "itemScarecrow/img/2020/33pages(0)"
				}
			},
			"geometry": {
				"type": "Point",
				"coordinates": [0.44840, 50.83864]
			}
		}, {
			"type": "Feature",
			"properties": {
				"id": "3pages",
				"name": "3 Pages Lane",
				"ward": "Collington",
				"winner": 2,
				"img": {
					"0": "itemScarecrow/img/2020/3pages(0)"
				}
			},
			"geometry": {
				"type": "Point",
				"coordinates": [0.44775, 50.84031]
			}
		}, {
			"type": "Feature",
			"properties": {
				"id": "31south",
				"name": "31 South Cliff",
				"ward": "Collington",
				"img": {
					"0": "itemScarecrow/img/2020/31south(0)"
				}
			},
			"geometry": {
				"type": "Point",
				"coordinates": [0.45211, 50.83557]
			}
		}, {
			"type": "Feature",
			"properties": {
				"id": "23queens",
				"name": "Flat 23, Queens Court, West Parade",
				"ward": "Central",
				"img": {
					"0": "itemScarecrow/img/2020/23queens(0)"
				}
			},
			"geometry": {
				"type": "Point",
				"coordinates": [0.46889, 50.83700]
			}
		}, {
			"type": "Feature",
			"properties": {
				"id": "10cooden",
				"name": "Flat 2, 10 Cooden Drive",
				"ward": "Collington",
				"img": {
					"0": "itemScarecrow/img/2020/10cooden(0)"
				}
			},
			"geometry": {
				"type": "Point",
				"coordinates": [0.46128, 50.83945]
			}
		}, {
			"type": "Feature",
			"properties": {
				"id": "22pages",
				"name": "22 Pages Lane",
				"ward": "Collington",
				"img": {
					"0": "itemScarecrow/img/2020/22pages(0)"
				}
			},
			"geometry": {
				"type": "Point",
				"coordinates": [0.44781, 50.83883]
			}
		}, {
			"type": "Feature",
			"properties": {
				"id": "pinewoodwhydown",
				"name": "Pinewood Lodge, Whydown Road",
				"ward": "St. Mark's",
				"img": {
					"0": "itemScarecrow/img/2020/pinewoodwhydown(0)"
				}
			},
			"geometry": {
				"type": "Point",
				"coordinates": [0.43407, 50.85802]
			}
		}, {
			"type": "Feature",
			"properties": {
				"id": "66cooden",
				"name": "Little Cottage, 66 Cooden Sea Road",
				"ward": "St. Mark's",
				"winner": 1,
				"img": {
					"0": "itemScarecrow/img/2020/66cooden(0)"
				}
			},
			"geometry": {
				"type": "Point",
				"coordinates": [0.43369, 50.84295]
			}
		}, {
			"type": "Feature",
			"properties": {
				"id": "47bancroft",
				"name": "47 Bancroft Road",
				"ward": "St. Stephen's",
				"winner": 1,
				"img": {
					"0": "itemScarecrow/img/2020/47bancroft(0)"
				}
			},
			"geometry": {
				"type": "Point",
				"coordinates": [0.46797, 50.84837]
			}
		}, {
			"type": "Feature",
			"properties": {
				"id": "219london",
				"name": "219 London Road",
				"ward": "Old Town & Worsham",
				"winner": 2,
				"img": {
					"0": "itemScarecrow/img/2020/219london(0)"
				}
			},
			"geometry": {
				"type": "Point",
				"coordinates": [0.47116, 50.85087]
			}
		}, {
			"type": "Feature",
			"properties": {
				"id": "15summer",
				"name": "15 Summer Hill Road",
				"ward": "St. Stephen's",
				"img": {
					"0": "itemScarecrow/img/2020/15summer(0)"
				}
			},
			"geometry": {
				"type": "Point",
				"coordinates": [0.45181, 50.85051]
			}
		}, {
			"type": "Feature",
			"properties": {
				"id": "12summer",
				"name": "12 Summer Hill Road",
				"ward": "St. Stephen's",
				"img": {
					"0": "itemScarecrow/img/2020/12summer(0)"
				}
			},
			"geometry": {
				"type": "Point",
				"coordinates": [0.45176, 50.85067]
			}
		}, {
			"type": "Feature",
			"properties": {
				"id": "44bancroft",
				"name": "44 Bancroft Road",
				"ward": "St. Stephen's",
				"img": {
					"0": "itemScarecrow/img/2020/44bancroft(0)"
				}
			},
			"geometry": {
				"type": "Point",
				"coordinates": [0.46827, 50.84847]
			}
		}, {
			"type": "Feature",
			"properties": {
				"id": "24north",
				"name": "24 North Road",
				"ward": "Sidley",
				"img": {
					"0": "itemScarecrow/img/2020/24north(0)"
				}
			},
			"geometry": {
				"type": "Point",
				"coordinates": [0.47220, 50.85697]
			}
		}, {
			"type": "Feature",
			"properties": {
				"id": "allsaintschool",
				"name": "All Saints C.E. Primary School, All Saints Lane",
				"ward": "Sidley",
				"winner": 2,
				"img": {
					"0": "itemScarecrow/img/2020/allsaintschool(0)"
				}
			},
			"geometry": {
				"type": "Point",
				"coordinates": [0.46908, 50.85646]
			}
		}, {
			"type": "Feature",
			"properties": {
				"id": "26mayo",
				"name": "26 Mayo Lane",
				"ward": "Sidley",
				"winner": 1,
				"img": {
					"0": "itemScarecrow/img/2020/26mayo(0)"
				}
			},
			"geometry": {
				"type": "Point",
				"coordinates": [0.46395, 50.86169]
			}
		}, {
			"type": "Feature",
			"properties": {
				"id": "allsaintschurch",
				"name": "All Saints Church, All Saints Lane",
				"ward": "Sidley",
				"img": {
					"0": "itemScarecrow/img/2020/allsaintschurch(0)"
				}
			},
			"geometry": {
				"type": "Point",
				"coordinates": [0.46803, 50.85661]
			}
		}, {
			"type": "Feature",
			"properties": {
				"id": "26north",
				"name": "26 North Road",
				"ward": "Sidley",
				"img": {
					"0": "itemScarecrow/img/2020/26north(0)"
				}
			},
			"geometry": {
				"type": "Point",
				"coordinates": [0.47217, 50.85701]
			}
		}, {
			"type": "Feature",
			"properties": {
				"id": "24haslam",
				"name": "Lynne's Hair Salon, 24-26 Haslam Crescent",
				"ward": "Pebsham & St. Michael's",
				"winner": 2,
				"img": {
					"0": "itemScarecrow/img/2020/24haslam(0)"
				}
			},
			"geometry": {
				"type": "Point",
				"coordinates": [0.49575, 50.85024]
			}
		}, {
			"type": "Feature",
			"properties": {
				"id": "4hastings",
				"name": "Elizabeth Court Rest Home, 4 Hastings Road",
				"ward": "Sackville",
				"winner": 1,
				"img": {
					"0": "itemScarecrow/img/2020/4hastings(0)"
				}
			},
			"geometry": {
				"type": "Point",
				"coordinates": [0.48148, 50.84577]
			}
		}, {
			"type": "Feature",
			"properties": {
				"id": "73martyns",
				"name": "Kismet, 73 Martyns Way",
				"ward": "Pebsham & St. Michael's",
				"winner": 1,
				"img": {
					"0": "itemScarecrow/img/2020/73martyns(0)"
				}
			},
			"geometry": {
				"type": "Point",
				"coordinates": [0.50520, 50.84887]
			}
		}, {
			"type": "Feature",
			"properties": {
				"id": "49ridgewood",
				"name": "49 Ridgewood Gardens",
				"ward": "Sackville",
				"img": {
					"0": "itemScarecrow/img/2020/49ridgewood(0)"
				}
			},
			"geometry": {
				"type": "Point",
				"coordinates": [0.49625, 50.84355]
			}
		}, {
			"type": "Feature",
			"properties": {
				"id": "20albert",
				"name": "Abbey House Residential Care Home, 20-22 Albert Road",
				"ward": "Central",
				"img": {
					"0": "itemScarecrow/img/2020/20albert(0)"
				}
			},
			"geometry": {
				"type": "Point",
				"coordinates": [0.47291, 50.83851]
			}
		}, {
			"type": "Feature",
			"properties": {
				"id": "63wickham",
				"name": "63 Wickham Avenue",
				"ward": "Central",
				"winner": 1,
				"img": {
					"0": "itemScarecrow/img/2020/63wickham(0)"
				}
			},
			"geometry": {
				"type": "Point",
				"coordinates": [0.46355, 50.83941]
			}
		}, {
			"type": "Feature",
			"properties": {
				"id": "8wainwright",
				"name": "Claremont Veterinary Group, 8 Wainwright Road",
				"ward": "Central",
				"img": {
					"0": "itemScarecrow/img/2020/8wainwright(0)"
				}
			},
			"geometry": {
				"type": "Point",
				"coordinates": [0.46596, 50.84198]
			}
		}, {
			"type": "Feature",
			"properties": {
				"id": "20amherst",
				"name": "20 Amherst Road",
				"ward": "Central",
				"winner": 2,
				"img": {
					"0": "itemScarecrow/img/2020/20amherst(0)"
				}
			},
			"geometry": {
				"type": "Point",
				"coordinates": [0.47160, 50.84270]
			}
		}, {
			"type": "Feature",
			"properties": {
				"id": "pinecornerjames",
				"name": "Pine Corner, St James Avenue",
				"ward": "Old Town & Worsham",
				"img": {
					"0": "itemScarecrow/img/2020/pinecornerjames(0)"
				}
			},
			"geometry": {
				"type": "Point",
				"coordinates": [0.48025, 50.85377]
			}
		}, {
			"type": "Feature",
			"properties": {
				"id": "16barrack",
				"name": "16 Barrack Road",
				"ward": "Old Town & Worsham",
				"winner": 1,
				"img": {
					"0": "itemScarecrow/img/2020/16barrack(0)"
				}
			},
			"geometry": {
				"type": "Point",
				"coordinates": [0.47309, 50.84687]
			}
		}, {
			"type": "Feature",
			"properties": {
				"id": "39briary",
				"name": "39 The Briary",
				"ward": "Old Town & Worsham",
				"img": {
					"0": "itemScarecrow/img/2020/39briary(0)"
				}
			},
			"geometry": {
				"type": "Point",
				"coordinates": [0.48323, 50.84934]
			}
		}, {
			"type": "Feature",
			"properties": {
				"id": "7salvington",
				"name": "7 Salvington Crescent",
				"ward": "Kewhurst",
				"img": {
					"0": "itemScarecrow/img/2020/7salvington(0)"
				}
			},
			"geometry": {
				"type": "Point",
				"coordinates": [0.45289, 50.84388]
			}
		}, {
			"type": "Feature",
			"properties": {
				"id": "29south",
				"name": "29 South Cliff",
				"ward": "Collington",
				"img": {
					"0": "itemScarecrow/img/2020/29south(0)"
				}
			},
			"geometry": {
				"type": "Point",
				"coordinates": [0.45237, 50.83559]
			}
		}, {
			"type": "Feature",
			"properties": {
				"id": "64cooden",
				"name": "64 Cooden Sea Road",
				"ward": "St. Mark's",
				"winner": 2,
				"img": {
					"0": "itemScarecrow/img/2020/64cooden(0)"
				}
			},
			"geometry": {
				"type": "Point",
				"coordinates": [0.43366, 50.84302]
			}
		}, {
			"type": "Feature",
			"properties": {
				"id": "116seabourne",
				"name": "116 Seabourne Road",
				"ward": "Pebsham & St. Michael's",
				"winner": 2,
				"img": {
					"0": "itemScarecrow/img/2020/116seabourne(0)"
				}
			},
			"geometry": {
				"type": "Point",
				"coordinates": [0.50483, 50.85039]
			}
		}, {
			"type": "Feature",
			"properties": {
				"id": "44peters",
				"name": "44 St Peters Crescent",
				"ward": "Old Town & Worsham",
				"img": {
					"0": "itemScarecrow/img/2020/44peters(0)"
				}
			},
			"geometry": {
				"type": "Point",
				"coordinates": [0.48104, 50.84819]
			}
		}, {
			"type": "Feature",
			"properties": {
				"id": "6oakfield",
				"name": "6 Oakfield Way",
				"ward": "St. Mark's",
				"img": {
					"0": "itemScarecrow/img/2020/6oakfield(0)"
				}
			},
			"geometry": {
				"type": "Point",
				"coordinates": [0.43037, 50.85144]
			}
		}, {
			"type": "Feature",
			"properties": {
				"id": "10woodsgate",
				"name": "10 Woodsgate Park",
				"ward": "St. Stephen's",
				"winner": 2,
				"img": {
					"0": "itemScarecrow/img/2020/10woodsgate(0)"
				}
			},
			"geometry": {
				"type": "Point",
				"coordinates": [0.46584, 50.85040]
			}
		}, {
			"type": "Feature",
			"properties": {
				"id": "17willow",
				"name": "Strathmore, 17 Willow Drive",
				"ward": "St. Mark's",
				"img": {
					"0": "itemScarecrow/img/2020/17willow(0)"
				}
			},
			"geometry": {
				"type": "Point",
				"coordinates": [0.43100, 50.84744]
			}
		}, {
			"type": "Feature",
			"properties": {
				"id": "32little",
				"name": "Hurchington Manor, 32 Little Common Road",
				"ward": "Kewhurst",
				"img": {
					"0": "itemScarecrow/img/2020/32little(0)"
				}
			},
			"geometry": {
				"type": "Point",
				"coordinates": [0.45066, 50.84599]
			}
		}, {
			"type": "Feature",
			"properties": {
				"id": "64collington",
				"name": "Sycamore Cottage, 64 Collington Lane West",
				"ward": "Kewhurst",
				"img": {
					"0": "itemScarecrow/img/2020/64collington(0)"
				}
			},
			"geometry": {
				"type": "Point",
				"coordinates": [0.43997, 50.84138]
			}
		}, {
			"type": "Feature",
			"properties": {
				"id": "10marina",
				"name": "10 Marina Court Avenue",
				"ward": "Central",
				"img": {
					"0": "itemScarecrow/img/2020/10marina(0)"
				}
			},
			"geometry": {
				"type": "Point",
				"coordinates": [0.47366, 50.83708]
			}
		}, {
			"type": "Feature",
			"properties": {
				"id": "66amherst",
				"name": "66 Amherst Road",
				"ward": "Central",
				"img": {
					"0": "itemScarecrow/img/2020/66amherst(0)"
				}
			},
			"geometry": {
				"type": "Point",
				"coordinates": [0.47156, 50.84508]
			}
		}, {
			"type": "Feature",
			"properties": {
				"id": "8hawkhurst",
				"name": "8 Hawkhurst Way",
				"ward": "Collington",
				"img": {
					"0": "itemScarecrow/img/2020/8hawkhurst(0)"
				}
			},
			"geometry": {
				"type": "Point",
				"coordinates": [0.44400, 50.84004]
			}
		}, {
			"type": "Feature",
			"properties": {
				"id": "21awickham",
				"name": "21A Wickham Avenue",
				"ward": "Central",
				"winner": 2,
				"img": {
					"0": "itemScarecrow/img/2020/21awickham(0)"
				}
			},
			"geometry": {
				"type": "Point",
				"coordinates": [0.46885, 50.83975]
			}
		}, {
			"type": "Feature",
			"properties": {
				"id": "20magdalen",
				"name": "20 Magdalen Road",
				"ward": "Sackville",
				"img": {
					"0": "itemScarecrow/img/2020/20magdalen(0)"
				}
			},
			"geometry": {
				"type": "Point",
				"coordinates": [0.47971, 50.84171]
			}
		}, {
			"type": "Feature",
			"properties": {
				"id": "9pages",
				"name": "9 Pages Lane",
				"ward": "Collington",
				"img": {
					"0": "itemScarecrow/img/2020/9pages(0)"
				}
			},
			"geometry": {
				"type": "Point",
				"coordinates": [0.44767, 50.84004]
			}
		}, {
			"type": "Feature",
			"properties": {
				"id": "67cooden",
				"name": "67 Cooden Drive",
				"ward": "Collington",
				"winner": 1,
				"img": {
					"0": "itemScarecrow/img/2020/67cooden(0)"
				}
			},
			"geometry": {
				"type": "Point",
				"coordinates": [0.45198, 50.83769]
			}
		}, {
			"type": "Feature",
			"properties": {
				"id": "13pages",
				"name": "13 Pages Lane",
				"ward": "Collington",
				"img": {
					"0": "itemScarecrow/img/2020/13pages(0)"
				}
			},
			"geometry": {
				"type": "Point",
				"coordinates": [0.44763, 50.83984]
			}
		}, {
			"type": "Feature",
			"properties": {
				"id": "sarniawrestwood",
				"name": "Sarnia, Wrestwood Road",
				"ward": "Pebsham & St. Michael's",
				"img": {
					"0": "itemScarecrow/img/2020/sarniawrestwood(0)"
				}
			},
			"geometry": {
				"type": "Point",
				"coordinates": [0.49046, 50.85014]
			}
		}, {
			"type": "Feature",
			"properties": {
				"id": "26crofton",
				"name": "Larchwood, 26 Crofton Park Avenue",
				"ward": "Collington",
				"img": {
					"0": "itemScarecrow/img/2020/26crofton(0)"
				}
			},
			"geometry": {
				"type": "Point",
				"coordinates": [0.44716, 50.83896]
			}
		}, {
			"type": "Feature",
			"properties": {
				"id": "bathingstation",
				"name": "The Old Bathing Station, De La Warr Parade",
				"ward": "Sackville",
				"winner": 2,
				"img": {
					"0": "itemScarecrow/img/2020/bathingstation(0)"
				}
			},
			"geometry": {
				"type": "Point",
				"coordinates": [0.47787, 50.83769]
			}
		}, {
			"type": "Feature",
			"properties": {
				"id": "14wickham",
				"name": "14 Wickham Avenue",
				"ward": "Central",
				"img": {
					"0": "itemScarecrow/img/2020/14wickham(0)"
				}
			},
			"geometry": {
				"type": "Point",
				"coordinates": [0.46872, 50.83994]
			}
		}, {
			"type": "Feature",
			"properties": {
				"id": "stjohnschurch",
				"name": "St. John's Centre, London Road",
				"ward": "Central",
				"img": {
					"0": "itemScarecrow/img/2020/stjohnschurch(0)"
				}
			},
			"geometry": {
				"type": "Point",
				"coordinates": [0.46962, 50.84193]
			}
		}
	]
}
