{
	"type": "FeatureCollection",
	"features": [{
			"type": "Feature",
			"properties": {
				"id": "afic",
				"name": "aFic",
				"img": {
					"0": "Xmas/2018/afic(0)"
				},
				"imgattrib": {
					"0": "Website"
				},
				"imgattriburl": {
					"0": "http://www.afic.co.uk/"
				}
			},
			"geometry": {
				"type": "Point",
				"coordinates": [0.46911, 50.83984]
			}
		}, {
			"type": "Feature",
			"properties": {
				"id": "ageuk",
				"name": "Age UK",
				"img": {
					"0": "Xmas/2018/ageuk(0)"
				},
				"imgattrib": {
					"0": "Website"
				},
				"imgattriburl": {
					"0": "https://directory.ageuk.org.uk/charity-shops/age-uk-east-sussex-bexhill-on-sea-shop"
				},
				"winner": "<i class='xmasAward commendedAward fas fa-award'></i> Highly Commended"
			},
			"geometry": {
				"type": "Point",
				"coordinates": [0.47535, 50.83971]
			}
		}, {
			"type": "Feature",
			"properties": {
				"id": "ark",
				"name": "Ark Residential",
				"img": {
					"0": "Xmas/2018/ark(0)"
				},
				"imgattrib": {
					"0": "Website"
				},
				"imgattriburl": {
					"0": "http://www.arkresidential.co.uk"
				},
				"winner": "<i class='xmasAward commendedAward fas fa-award'></i> Highly Commended"
			},
			"geometry": {
				"type": "Point",
				"coordinates": [0.46983, 50.83990]
			}
		}, {
			"type": "Feature",
			"properties": {
				"id": "barbykeel",
				"name": "Barby Keel",
				"img": {
					"0": "Xmas/2018/barbykeel(0)"
				},
				"imgattrib": {
					"0": "Website"
				},
				"imgattriburl": {
					"0": "http://barbykeel.btck.co.uk/"
				},
				"winner": "<i class='xmasAward commendedAward fas fa-award'></i> Highly Commended"
			},
			"geometry": {
				"type": "Point",
				"coordinates": [0.47455, 50.83991]
			}
		}, {
			"type": "Feature",
			"properties": {
				"id": "caringcommunity",
				"name": "Bexhill Caring Community",
				"img": {
					"0": "Xmas/2018/caringcommunity(0)"
				},
				"imgattrib": {
					"0": "Website"
				},
				"imgattriburl": {
					"0": "http://www.bexhillcaringcommunity.org"
				},
				"winner": "<i class='xmasAward commendedAward fas fa-award'></i> Highly Commended"
			},
			"geometry": {
				"type": "Point",
				"coordinates": [0.47009, 50.83883]
			}
		}, {
			"type": "Feature",
			"properties": {
				"id": "bexhillflorist",
				"name": "The Bexhill Florist",
				"img": {
					"0": "Xmas/2018/bexhillflorist(0)"
				},
				"imgattrib": {
					"0": "Website"
				},
				"imgattriburl": {
					"0": "http://www.thebexhillflorist.co.uk"
				},
				"winner": "<i class='xmasAward commendedThird fas fa-award'></i> Third Prize"
			},
			"geometry": {
				"type": "Point",
				"coordinates": [0.47680, 50.83972]
			}
		}, {
			"type": "Feature",
			"properties": {
				"id": "youthcentre",
				"name": "Bexhill Youth and Community Centre",
				"img": {
					"0": "Xmas/2018/youthcentre(0)"
				},
				"imgattrib": {
					"0": "Website"
				},
				"imgattriburl": {
					"0": "http://www.bexhillyouthandcommunitycentre.co.uk/"
				},
				"winner": "<i class='xmasAward commendedAward fas fa-award'></i> Highly Commended"
			},
			"geometry": {
				"type": "Point",
				"coordinates": [0.47420, 50.84113]
			}
		}, {
			"type": "Feature",
			"properties": {
				"id": "birkdale",
				"name": "Birkdale Nursery",
				"img": {
					"0": "Xmas/2018/birkdale(0)"
				},
				"imgattrib": {
					"0": "Website"
				},
				"imgattriburl": {
					"0": "http://www.birkdalenursery.co.uk/"
				},
				"winner": "<i class='xmasAward commendedAward fas fa-award'></i> Highly Commended"
			},
			"geometry": {
				"type": "Point",
				"coordinates": [0.46994, 50.84197]
			}
		}, {
			"type": "Feature",
			"properties": {
				"id": "carnegieloft",
				"name": "Carnegie Loft",
				"img": {
					"0": "Xmas/2018/carnegieloft(0)"
				},
				"imgattrib": {
					"0": "Website"
				},
				"imgattriburl": {
					"0": "http://carnegieloft.co.uk/"
				}
			},
			"geometry": {
				"type": "Point",
				"coordinates": [0.47368, 50.84023]
			}
		}, {
			"type": "Feature",
			"properties": {
				"id": "dorothymarchant",
				"name": "Dorothy Marchant Florists",
				"img": {
					"0": "Xmas/2018/dorothymarchant(0)"
				},
				"imgattrib": {
					"0": "Website"
				},
				"imgattriburl": {
					"0": "http://www.dorothymarchant.co.uk/"
				},
				"winner": "<i class='xmasAward commendedAward fas fa-award'></i> Highly Commended"
			},
			"geometry": {
				"type": "Point",
				"coordinates": [0.47034, 50.83995]
			}
		}, {
			"type": "Feature",
			"properties": {
				"id": "esspa",
				"name": "Esspa",
				"img": {
					"0": "Xmas/2018/esspa(0)"
				},
				"imgattrib": {
					"0": "Website"
				},
				"imgattriburl": {
					"0": "http://www.esspa.co.uk/"
				},
				"winner": "<i class='xmasAward commendedAward fas fa-award'></i> Highly Commended"
			},
			"geometry": {
				"type": "Point",
				"coordinates": [0.47002, 50.84151]
			}
		}, {
			"type": "Feature",
			"properties": {
				"id": "funnelperring",
				"name": "Funnell & Perring Solicitors",
				"img": {
					"0": "Xmas/2018/funnelperring(0)"
				},
				"imgattrib": {
					"0": "Website"
				},
				"imgattriburl": {
					"0": "http://www.funnellandperring.co.uk"
				}
			},
			"geometry": {
				"type": "Point",
				"coordinates": [0.47216, 50.83960]
			}
		}, {
			"type": "Feature",
			"properties": {
				"id": "greenelliott",
				"name": "Green & Elliott Optometrists",
				"img": {
					"0": "Xmas/2018/greenelliott(0)"
				},
				"imgattrib": {
					"0": "Website"
				},
				"imgattriburl": {
					"0": "http://www.greenandelliott.co.uk/"
				},
				"winner": "<i class='xmasAward commendedAward fas fa-award'></i> Highly Commended"
			},
			"geometry": {
				"type": "Point",
				"coordinates": [0.46975, 50.83913]
			}
		}, {
			"type": "Feature",
			"properties": {
				"id": "hh",
				"name": "H&H Confectionery",
				"img": {
					"0": "Xmas/2018/hh(0)"
				},
				"imgattrib": {
					"0": "Facebook"
				},
				"imgattriburl": {
					"0": "https://www.facebook.com/HandHconfectionery.co.uk/"
				},
				"winner": "<i class='xmasAward commendedAward fas fa-award'></i> Highly Commended"
			},
			"geometry": {
				"type": "Point",
				"coordinates": [0.46968, 50.83947]
			}
		}, {
			"type": "Feature",
			"properties": {
				"id": "honeybarrett",
				"name": "Honey Barrett",
				"img": {
					"0": "Xmas/2018/honeybarrett(0)"
				},
				"imgattrib": {
					"0": "Website"
				},
				"imgattriburl": {
					"0": "http://www.honeybarrett.co.uk/"
				}
			},
			"geometry": {
				"type": "Point",
				"coordinates": [0.47651, 50.83961]
			}
		}, {
			"type": "Feature",
			"properties": {
				"id": "inperspective",
				"name": "In Perspective: Arts and Craft",
				"img": {
					"0": "Xmas/2018/inperspective(0)"
				},
				"imgattrib": {
					"0": "Website"
				},
				"imgattriburl": {
					"0": "http://www.inperspectiveart.co.uk/"
				}
			},
			"geometry": {
				"type": "Point",
				"coordinates": [0.47637, 50.83976]
			}
		}, {
			"type": "Feature",
			"properties": {
				"id": "lacollina",
				"name": "La Collina Gardens",
				"img": {
					"0": "Xmas/2018/lacollina(0)"
				},
				"imgattrib": {
					"0": "Website"
				},
				"imgattriburl": {
					"0": "http://www.lacollinagardens.co.uk/"
				},
				"winner": "<i class='xmasAward commendedAward fas fa-award'></i> Highly Commended"
			},
			"geometry": {
				"type": "Point",
				"coordinates": [0.47489, 50.83977]
			}
		}, {
			"type": "Feature",
			"properties": {
				"id": "ljcollis",
				"name": "L.J. Collis & Co",
				"img": {
					"0": "Xmas/2018/ljcollis(0)"
				},
				"imgattrib": {
					"0": "Website"
				},
				"imgattriburl": {
					"0": "http://www.paydenspharmacy.co.uk/pharmacy_l-j-collis-&-co-bexhill.asp"
				}
			},
			"geometry": {
				"type": "Point",
				"coordinates": [0.47420, 50.83994]
			}
		}, {
			"type": "Feature",
			"properties": {
				"id": "makersloft",
				"name": "Maker's Loft",
				"img": {
					"0": "Xmas/2018/makersloft(0)"
				},
				"imgattrib": {
					"0": "Facebook"
				},
				"imgattriburl": {
					"0": "https://www.facebook.com/themakersloft"
				},
				"winner": "<i class='xmasAward commendedAward fas fa-award'></i> Highly Commended"
			},
			"geometry": {
				"type": "Point",
				"coordinates": [0.46964, 50.83965]
			}
		}, {
			"type": "Feature",
			"properties": {
				"id": "mind",
				"name": "Mind",
				"img": {
					"0": "Xmas/2018/mind(0)"
				},
				"imgattrib": {
					"0": "Website"
				},
				"imgattriburl": {
					"0": "https://www.mind.org.uk/"
				},
				"winner": "<i class='xmasAward commendedAward fas fa-award'></i> Highly Commended"
			},
			"geometry": {
				"type": "Point",
				"coordinates": [0.47419, 50.83799]
			}
		}, {
			"type": "Feature",
			"properties": {
				"id": "mummery",
				"name": "Mummery",
				"img": {
					"0": "Xmas/2018/mummery(0)"
				},
				"imgattrib": {
					"0": "Website"
				},
				"imgattriburl": {
					"0": "http://www.mummeryfunerals.co.uk/"
				},
				"winner": "<i class='xmasAward commendedFirst fas fa-award'></i> First Prize"
			},
			"geometry": {
				"type": "Point",
				"coordinates": [0.47390, 50.83926]
			}
		}, {
			"type": "Feature",
			"properties": {
				"id": "number10",
				"name": "Number10",
				"img": {
					"0": "Xmas/2018/number10(0)"
				},
				"imgattrib": {
					"0": "01424 211498"
				}
			},
			"geometry": {
				"type": "Point",
				"coordinates": [0.47530, 50.84066]
			}
		}, {
			"type": "Feature",
			"properties": {
				"id": "oxfam",
				"name": "Oxfam",
				"img": {
					"0": "Xmas/2018/oxfam(0)"
				},
				"imgattrib": {
					"0": "Website"
				},
				"imgattriburl": {
					"0": "https://www.oxfam.org.uk/shop/local-shops/oxfam-shop-bexhillonsea"
				}
			},
			"geometry": {
				"type": "Point",
				"coordinates": [0.47265, 50.84030]
			}
		}, {
			"type": "Feature",
			"properties": {
				"id": "premiertravel",
				"name": "Premier Travel",
				"img": {
					"0": "Xmas/2018/premiertravel(0)"
				},
				"imgattrib": {
					"0": "Website"
				},
				"imgattriburl": {
					"0": "http://www.premiertravelbexhill.co.uk"
				}
			},
			"geometry": {
				"type": "Point",
				"coordinates": [0.47272, 50.840305]
			}
		}, {
			"type": "Feature",
			"properties": {
				"id": "saralee1",
				"name": "Sara Lee Trust",
				"img": {
					"0": "Xmas/2018/saralee(western)(0)"
				},
				"imgattrib": {
					"0": "Website"
				},
				"imgattriburl": {
					"0": "http://www.saraleetrust.org"
				},
				"winner": "<i class='xmasAward commendedSecond fas fa-award'></i> Second Prize"
			},
			"geometry": {
				"type": "Point",
				"coordinates": [0.47079, 50.83999]
			}
		}, {
			"type": "Feature",
			"properties": {
				"id": "saralee2",
				"name": "Sara Lee Trust",
				"img": {
					"0": "Xmas/2018/saralee(endwell)(0)"
				},
				"imgattrib": {
					"0": "Website"
				},
				"imgattriburl": {
					"0": "http://www.saraleetrust.org"
				},
				"winner": "<i class='xmasAward commendedAward fas fa-award'></i> Highly Commended"
			},
			"geometry": {
				"type": "Point",
				"coordinates": [0.47507, 50.84065]
			}
		}, {
			"type": "Feature",
			"properties": {
				"id": "scope",
				"name": "Scope",
				"img": {
					"0": "Xmas/2018/scope(0)"
				},
				"imgattrib": {
					"0": "Website"
				},
				"imgattriburl": {
					"0": "https://www.scope.org.uk/Get-Involved/charity-shops/Charity-shops-directory/Bexhill-On-Sea-charity-shop"
				},
				"winner": "<i class='xmasAward commendedAward fas fa-award'></i> Highly Commended"
			},
			"geometry": {
				"type": "Point",
				"coordinates": [0.47018, 50.83844]
			}
		}, {
			"type": "Feature",
			"properties": {
				"id": "stmichaelshospice",
				"name": "St. Michael's Hospice",
				"img": {
					"0": "Xmas/2018/stmichaelshospice(0)"
				},
				"imgattrib": {
					"0": "Website"
				},
				"imgattriburl": {
					"0": "http://stmichaelshospice.com"
				},
				"winner": "<i class='xmasAward commendedAward fas fa-award'></i> Highly Commended"
			},
			"geometry": {
				"type": "Point",
				"coordinates": [0.47378, 50.83833]
			}
		}, {
			"type": "Feature",
			"properties": {
				"id": "thestudio",
				"name": "The Studio",
				"img": {
					"0": "Xmas/2018/thestudio(0)"
				},
				"imgattrib": {
					"0": "Website"
				},
				"imgattriburl": {
					"0": "http://www.thestudiobexhill.co.uk"
				}
			},
			"geometry": {
				"type": "Point",
				"coordinates": [0.47013, 50.83865]
			}
		}, {
			"type": "Feature",
			"properties": {
				"id": "topdog",
				"name": "Top Dog Grooming",
				"img": {
					"0": "Xmas/2018/topdog(0)"
				},
				"imgattrib": {
					"0": "Facebook"
				},
				"imgattriburl": {
					"0": "https://www.facebook.com/topdogbexhill2/"
				}
			},
			"geometry": {
				"type": "Point",
				"coordinates": [0.47714, 50.84073]
			}
		}, {
			"type": "Feature",
			"properties": {
				"id": "wards",
				"name": "Wards Group",
				"img": {
					"0": "Xmas/2018/wards(0)"
				},
				"imgattrib": {
					"0": "Website"
				},
				"imgattriburl": {
					"0": "http://www.wardsgroup.co.uk/"
				},
				"winner": "<i class='xmasAward commendedAward fas fa-award'></i> Highly Commended"
			},
			"geometry": {
				"type": "Point",
				"coordinates": [0.47365, 50.83900]
			}
		}, {
			"type": "Feature",
			"properties": {
				"id": "wickhambistro",
				"name": "Wickham Bistro",
				"img": {
					"0": "Xmas/2018/wickhambistro(0)"
				},
				"imgattrib": {
					"0": "Website"
				},
				"imgattriburl": {
					"0": "ttp://www.wickhambistro.com/"
				},
				"winner": "<i class='xmasAward commendedAward fas fa-award'></i> Highly Commended"
			},
			"geometry": {
				"type": "Point",
				"coordinates": [0.46920, 50.83985]
			}
		}
	]
}
