{
	"type": "FeatureCollection",
	"features": [{
			"type": "Feature",
			"properties": {
				"id": "ageuk",
				"name": "Age UK",
				"link": "https://directory.ageuk.org.uk/charity-shops/age-uk-east-sussex-bexhill-on-sea-shop",
				"img": {
					"0": "Xmas/2019/ageuk(0)",
					"1": "Xmas/2019/ageuk(1)"
				},
				"winner": 0
			},
			"geometry": {
				"type": "Point",
				"coordinates": [0.47535, 50.83971]
			}
		}, {
			"type": "Feature",
			"properties": {
				"id": "bexhillflorist",
				"name": "The Bexhill Florist",
				"link": "http://www.thebexhillflorist.co.uk",
				"img": {
					"0": "Xmas/2019/bexhillflorist(0)"
				},
				"winner": 0
			},
			"geometry": {
				"type": "Point",
				"coordinates": [0.47680, 50.83972]
			}
		}, {
			"type": "Feature",
			"properties": {
				"id": "youthcentre",
				"name": "Bexhill Youth and Community Centre",
				"link": "http://www.bexhillyouthandcommunitycentre.co.uk/",
				"img": {
					"0": "Xmas/2019/youthcentre(0)",
					"1": "Xmas/2019/youthcentre(1)",
					"2": "Xmas/2019/youthcentre(2)"
				},
				"winner": 0
			},
			"geometry": {
				"type": "Point",
				"coordinates": [0.47420, 50.84113]
			}
		}, {
			"type": "Feature",
			"properties": {
				"id": "birkdale",
				"name": "Birkdale Nursery",
				"link": "http://www.birkdalenursery.co.uk/",
				"img": {
					"0": "Xmas/2019/birkdale(0)"
				},
				"winner": 0
			},
			"geometry": {
				"type": "Point",
				"coordinates": [0.46994, 50.84197]
			}
		}, {
			"type": "Feature",
			"properties": {
				"id": "barbykeel",
				"name": "Barby Keel",
				"link": "http://barbykeel.btck.co.uk/",
				"img": {
					"0": "Xmas/2019/barbykeel(0)",
					"1": "Xmas/2019/barbykeel(1)",
					"2": "Xmas/2019/barbykeel(2)"
				}
			},
			"geometry": {
				"type": "Point",
				"coordinates": [0.47455, 50.83991]
			}
		}, {
			"type": "Feature",
			"properties": {
				"id": "caringcommunity",
				"name": "Bexhill Caring Community",
				"link": "http://www.bexhillcaringcommunity.org",
				"img": {
					"0": "Xmas/2019/caringcommunity(0)",
					"1": "Xmas/2019/caringcommunity(1)",
					"2": "Xmas/2019/caringcommunity(2)",
					"3": "Xmas/2019/caringcommunity(3)"
				},
				"winner": 2
			},
			"geometry": {
				"type": "Point",
				"coordinates": [0.47009, 50.83883]
			}
		}, {
			"type": "Feature",
			"properties": {
				"id": "dorothymarchant",
				"name": "Dorothy Marchant Florists",
				"link": "http://www.dorothymarchant.co.uk/",
				"img": {
					"0": "Xmas/2019/dorothymarchant(0)",
					"1": "Xmas/2019/dorothymarchant(1)"
				},
				"winner": 1
			},
			"geometry": {
				"type": "Point",
				"coordinates": [0.47034, 50.83995]
			}
		}, {
			"type": "Feature",
			"properties": {
				"id": "esspa",
				"name": "Esspa",
				"link": "http://www.esspa.co.uk/",
				"img": {
					"0": "Xmas/2019/esspa(0)",
					"1": "Xmas/2019/esspa(1)"
				}
			},
			"geometry": {
				"type": "Point",
				"coordinates": [0.47002, 50.84151]
			}
		}, {
			"type": "Feature",
			"properties": {
				"id": "greenelliott",
				"name": "Green & Elliott Optometrists",
				"link": "http://www.greenandelliott.co.uk/",
				"img": {
					"0": "Xmas/2019/greenelliott(0)",
					"1": "Xmas/2019/greenelliott(1)"
				}
			},
			"geometry": {
				"type": "Point",
				"coordinates": [0.46975, 50.83913]
			}
		}, {
			"type": "Feature",
			"properties": {
				"id": "hh",
				"name": "H&H Confectionery",
				"link": "https://www.facebook.com/HandHconfectionery.co.uk/",
				"img": {
					"0": "Xmas/2019/hh(0)",
					"1": "Xmas/2019/hh(1)"
				}
			},
			"geometry": {
				"type": "Point",
				"coordinates": [0.46968, 50.83947]
			}
		}, {
			"type": "Feature",
			"properties": {
				"id": "mind",
				"name": "Mind",
				"link": "https://www.mind.org.uk/",
				"img": {
					"0": "Xmas/2019/mind(0)",
					"1": "Xmas/2019/mind(1)",
					"2": "Xmas/2019/mind(2)"
				},
				"winner": 0
			},
			"geometry": {
				"type": "Point",
				"coordinates": [0.47419, 50.83799]
			}
		}, {
			"type": "Feature",
			"properties": {
				"id": "mummery",
				"name": "Mummery",
				"link": "http://www.mummeryfunerals.co.uk/",
				"img": {
					"0": "Xmas/2019/mummery(0)"
				},
				"winner": 3
			},
			"geometry": {
				"type": "Point",
				"coordinates": [0.47390, 50.83926]
			}
		}, {
			"type": "Feature",
			"properties": {
				"id": "number10",
				"name": "Number10",
				"link": "01424 211498",
				"img": {
					"0": "Xmas/2019/number10(0)"
				}
			},
			"geometry": {
				"type": "Point",
				"coordinates": [0.47530, 50.84066]
			}
		}, {
			"type": "Feature",
			"properties": {
				"id": "poppyseed",
				"name": "Poppyseed Bakery",
				"link": "http://www.farmkitchen.co.uk/",
				"img": {
					"0": "Xmas/2019/poppyseed(0)"
				}
			},
			"geometry": {
				"type": "Point",
				"coordinates": [0.47227, 50.84027]
			}
		}, {
			"type": "Feature",
			"properties": {
				"id": "rspca",
				"name": "RSPCA",
				"link": "https://www.rspca.org.uk/",
				"img": {
					"0": "Xmas/2019/rspca(0)",
					"1": "Xmas/2019/rspca(1)"
				},
				"winner": 4
			},
			"geometry": {
				"type": "Point",
				"coordinates": [0.47241, 50.84028]
			}
		}, {
			"type": "Feature",
			"properties": {
				"id": "saralee1",
				"name": "Sara Lee Trust",
				"link": "http://www.saraleetrust.org",
				"img": {
					"0": "Xmas/2019/saralee(0)"
				}
			},
			"geometry": {
				"type": "Point",
				"coordinates": [0.47079, 50.83999]
			}
		}, {
			"type": "Feature",
			"properties": {
				"id": "topdog",
				"name": "Top Dog Grooming",
				"link": "https://www.facebook.com/topdogbexhill2/",
				"img": {
					"0": "Xmas/2019/topdog(0)",
					"1": "Xmas/2019/topdog(1)"
				}
			},
			"geometry": {
				"type": "Point",
				"coordinates": [0.47714, 50.84073]
			}
		}, {
			"type": "Feature",
			"properties": {
				"id": "towntaxis",
				"name": "Town Taxis",
				"link": "http://www.towntaxis.co.uk/",
				"img": {
					"0": "Xmas/2019/towntaxis(0)"
				}
			},
			"geometry": {
				"type": "Point",
				"coordinates": [0.47325, 50.84101]
			}
		}, {
			"type": "Feature",
			"properties": {
				"id": "wards",
				"name": "Wards Group",
				"link": "http://www.wardsgroup.co.uk/",
				"img": {
					"0": "Xmas/2019/wards(0)",
					"1": "Xmas/2019/wards(1)"
				},
				"winner": 0
			},
			"geometry": {
				"type": "Point",
				"coordinates": [0.47365, 50.83900]
			}
		}, {
			"type": "Feature",
			"properties": {
				"id": "wickhambistro",
				"name": "Wickham Bistro",
				"link": "http://www.wickhambistro.com/",
				"img": {
					"0": "Xmas/2019/wickhambistro(0)",
					"1": "Xmas/2019/wickhambistro(1)"
				}
			},
			"geometry": {
				"type": "Point",
				"coordinates": [0.46920, 50.83985]
			}
		}, {
			"type": "Feature",
			"properties": {
				"id": "woosters",
				"name": "Wooster's",
				"link": "01424 730998",
				"img": {
					"0": "Xmas/2019/woosters(0)"
				},
				"winner": 5
			},
			"geometry": {
				"type": "Point",
				"coordinates": [0.47291, 50.84032]
			}
		}
	]
}
